[{"nom":"Paris","population":2211000,"longitude":2.34445,"latitude":48.86},{"nom":"Marseille","population":851400,"longitude":5.37639,"latitude":43.2967},{"nom":"Lyon","population":474900,"longitude":4.84139,"latitude":45.7589},{"nom":"Toulouse","population":439600,"longitude":1.43333,"latitude":43.6},{"nom":"Nice","population":344900,"longitude":7.25,"latitude":43.7},{"nom":"Nantes","population":283300,"longitude":-1.55,"latitude":47.2167},{"nom":"Strasbourg","population":272100,"longitude":7.75,"latitude":48.5833},{"nom":"Montpellier","population":253000,"longitude":3.88333,"latitude":43.6},{"nom":"Bordeaux","population":235900,"longitude":-0.566667,"latitude":44.8333},{"nom":"Lille","population":225800,"longitude":3.06667,"latitude":50.6333},{"nom":"Rennes","population":206700,"longitude":-1.68333,"latitude":48.0833},{"nom":"Reims","population":181500,"longitude":4.03333,"latitude":49.25},{"nom":"Le Havre","population":178800,"longitude":0.133333,"latitude":49.5},{"nom":"Saint-\u00c9tienne","population":172700,"longitude":4.4,"latitude":45.4333},{"nom":"Toulon","population":166700,"longitude":5.93333,"latitude":43.1167},{"nom":"Grenoble","population":156700,"longitude":5.71667,"latitude":45.1667},{"nom":"Dijon","population":151600,"longitude":5.01667,"latitude":47.3167},{"nom":"Angers","population":148400,"longitude":-0.55,"latitude":47.4667},{"nom":"Saint-Denis","population":145022,"longitude":46.7107,"latitude":1.71819},{"nom":"Le Mans","population":143500,"longitude":0.2,"latitude":48.0}]